<?xml version="1.0" encoding="UTF-8"?>
<kml xmlns="http://www.opengis.net/kml/2.2">
<Document>
    <Placemark>
      <name>Dulsberg Kebap Döner Haus</name>
      <description>Dulsberg Kebap Döner Haus</description>
      <Point>
        <coordinates>10.065681554881571,53.58181309385559</coordinates>
      </Point>
    </Placemark>

    <Placemark>
      <name>The Döner</name>
      <description>The Döner</description>
      <Point>
        <coordinates>10.082401330254054,53.58023283104022</coordinates>
      </Point>
    </Placemark>

    <Placemark>
      <name>Kumpir &amp; Döner</name>
      <description>Kumpir &amp; Döner</description>
      <Point>
        <coordinates>10.072960012453374,53.574142325996945</coordinates>
      </Point>
    </Placemark>

    <Placemark>
      <name>Dr. Kebap</name>
      <description>Dr. Kebap</description>
      <Point>
        <coordinates>10.065445377691704,53.57170852780095</coordinates>
      </Point>
    </Placemark>

    <Placemark>
      <name>Kebab Zone</name>
      <description>Kebab Zone</description>
      <Point>
        <coordinates>10.060115419950787,53.57697689448169</coordinates>
      </Point>
    </Placemark>

    <Placemark>
      <name>BARIS Grillhaus</name>
      <description>BARIS Grillhaus</description>
      <Point>
        <coordinates>10.070726354882508,53.57254838364048</coordinates>
      </Point>
    </Placemark>

    <Placemark>
      <name>Döner Time</name>
      <description>Döner Time</description>
      <Point>
        <coordinates>10.060668663820822,53.57039485160528</coordinates>
      </Point>
    </Placemark>

    <Placemark>
      <name>Köz Adana</name>
      <description>Köz Adana</description>
      <Point>
        <coordinates>10.06166808946343,53.570961735879315</coordinates>
      </Point>
    </Placemark>

    <Placemark>
      <name>TONNDORF GRILL DÖNER IMBISS</name>
      <description>TONNDORF GRILL DÖNER IMBISS</description>
      <Point>
        <coordinates>10.104485436478493,53.58025004955116</coordinates>
      </Point>
    </Placemark>

    <Placemark>
      <name>Arda Restaurant</name>
      <description>Arda Restaurant</description>
      <Point>
        <coordinates>10.103386650824103,53.580025738969105</coordinates>
      </Point>
    </Placemark>

    <Placemark>
      <name>Döner Wandsbek</name>
      <description>Döner Wandsbek</description>
      <Point>
        <coordinates>10.139564447393193,53.583912592730904</coordinates>
      </Point>
    </Placemark>

    <Placemark>
      <name>23sarcon döner</name>
      <description>23sarcon döner</description>
      <Point>
        <coordinates>10.13558898883772,53.576858627261856</coordinates>
      </Point>
    </Placemark>

    <Placemark>
      <name>Hamburg Döner</name>
      <description>Hamburg Döner</description>
      <Point>
        <coordinates>10.137547938579681,53.57264921523312</coordinates>
      </Point>
    </Placemark>

    <Placemark>
      <name>Heisse Ecke</name>
      <description>Heisse Ecke</description>
      <Point>
        <coordinates>10.117330491125424,53.60800281518823</coordinates>
      </Point>
    </Placemark>

    <Placemark>
      <name>Ardacan Grillhaus</name>
      <description>Ardacan Grillhaus</description>
      <Point>
        <coordinates>10.11862864684987,53.60720071974336</coordinates>
      </Point>
    </Placemark>

    <Placemark>
      <name>Köz Adana Farmsen</name>
      <description>Köz Adana Farmsen</description>
      <Point>
        <coordinates>10.119712187490437,53.60643044489538</coordinates>
      </Point>
    </Placemark>

    <Placemark>
      <name>Balat Döner - Wandsbek-Gartenstadt</name>
      <description>Balat Döner - Wandsbek-Gartenstadt</description>
      <Point>
        <coordinates>10.075562115679498,53.59235916127901</coordinates>
      </Point>
    </Placemark>

    <Placemark>
      <name>Berne Kebap Haus</name>
      <description>Berne Kebap Haus</description>
      <Point>
        <coordinates>10.139445528213544,53.625345584471596</coordinates>
      </Point>
    </Placemark>

    <Placemark>
      <name>Dö Back</name>
      <description>Dö Back</description>
      <Point>
        <coordinates>10.139194603164647,53.62673385378034</coordinates>
      </Point>
    </Placemark>

    <Placemark>
      <name>Tunnel Döner</name>
      <description>Tunnel Döner</description>
      <Point>
        <coordinates>10.006146265364048,53.551588848835095</coordinates>
      </Point>
    </Placemark>

    <Placemark>
      <name>Havin Grill</name>
      <description>Havin Grill</description>
      <Point>
        <coordinates>10.006371650951762,53.55279986270066</coordinates>
      </Point>
    </Placemark>

    <Placemark>
      <name>Salli's</name>
      <description>Salli's</description>
      <Point>
        <coordinates>10.006768694008175,53.5537176768745</coordinates>
      </Point>
    </Placemark>

    <Placemark>
      <name>Tunnel Döner in der Hauptbahnhofs Halle</name>
      <description>Tunnel Döner in der Hauptbahnhofs Halle</description>
      <Point>
        <coordinates>10.008539010159598,53.55383871571219</coordinates>
      </Point>
    </Placemark>

    <Placemark>
      <name>Sallis Döner Grill &amp; Bäckerei</name>
      <description>Sallis Döner Grill &amp; Bäckerei</description>
      <Point>
        <coordinates>10.009469093569043,53.55301806791831</coordinates>
      </Point>
    </Placemark>

    <Placemark>
      <name>SoulKEBAB</name>
      <description>SoulKEBAB</description>
      <Point>
        <coordinates>10.011323380301294,53.552133187688376</coordinates>
      </Point>
    </Placemark>

    <Placemark>
      <name>Köz Ocakbasi</name>
      <description>Köz Ocakbasi</description>
      <Point>
        <coordinates>10.011323443180197,53.55288354385277</coordinates>
      </Point>
    </Placemark>

    <Placemark>
      <name>As Urfa Kebap Restaurant</name>
      <description>As Urfa Kebap Restaurant</description>
      <Point>
        <coordinates>10.01213549190913,53.55365531178043</coordinates>
      </Point>
    </Placemark>

    <Placemark>
      <name>Saray Köz</name>
      <description>Saray Köz</description>
      <Point>
        <coordinates>10.013867601063026,53.55391262766549</coordinates>
      </Point>
    </Placemark>

    <Placemark>
      <name>Batman Restaurant</name>
      <description>Batman Restaurant</description>
      <Point>
        <coordinates>10.014616438963381,53.55429849844367</coordinates>
      </Point>
    </Placemark>

    <Placemark>
      <name>Ankara Kebap Tantuni</name>
      <description>Ankara Kebap Tantuni</description>
      <Point>
        <coordinates>10.016053898424644,53.554567545001554</coordinates>
      </Point>
    </Placemark>

    <Placemark>
      <name>Sait Grillhaus</name>
      <description>Sait Grillhaus</description>
      <Point>
        <coordinates>10.010833146781968,53.55281983742695</coordinates>
      </Point>
    </Placemark>

    <Placemark>
      <name>Köz Istanbul</name>
      <description>Köz Istanbul</description>
      <Point>
        <coordinates>10.01069344186263,53.55300867352834</coordinates>
      </Point>
    </Placemark>

    <Placemark>
      <name>Baris Grillhaus</name>
      <description>Baris Grillhaus</description>
      <Point>
        <coordinates>10.009305701181667,53.55591280500969</coordinates>
      </Point>
    </Placemark>

    <Placemark>
      <name>Miss Döner</name>
      <description>Miss Döner</description>
      <Point>
        <coordinates>10.011161831555212,53.55688789489624</coordinates>
      </Point>
    </Placemark>

    <Placemark>
      <name>döner time</name>
      <description>döner time</description>
      <Point>
        <coordinates>10.02187336819446,53.55307055379566</coordinates>
      </Point>
    </Placemark>

    <Placemark>
      <name>HBB Store Schnell-Imbiss</name>
      <description>HBB Store Schnell-Imbiss</description>
      <Point>
        <coordinates>10.024437668224847,53.553467071005905</coordinates>
      </Point>
    </Placemark>

    <Placemark>
      <name>Wenden Kebab</name>
      <description>Wenden Kebab</description>
      <Point>
        <coordinates>10.036410805435898,53.550114619730735</coordinates>
      </Point>
    </Placemark>

    <Placemark>
      <name>DER URFA DÖNER</name>
      <description>DER URFA DÖNER</description>
      <Point>
        <coordinates>10.04028005610263,53.56094408279496</coordinates>
      </Point>
    </Placemark>

    <Placemark>
      <name>Sphinx Döner Landwehr</name>
      <description>Sphinx Döner Landwehr</description>
      <Point>
        <coordinates>10.037948243069199,53.56152026607263</coordinates>
      </Point>
    </Placemark>

    <Placemark>
      <name>Döner &amp;Pommes Paradies</name>
      <description>Döner &amp;Pommes Paradies</description>
      <Point>
        <coordinates>10.030425641445497,53.56236444364675</coordinates>
      </Point>
    </Placemark>

    <Placemark>
      <name>Haji Baba Kebab House</name>
      <description>Haji Baba Kebab House</description>
      <Point>
        <coordinates>10.012874043541473,53.554127123814695</coordinates>
      </Point>
    </Placemark>

    <Placemark>
      <name>Öz Urfa Kebap Haus</name>
      <description>Öz Urfa Kebap Haus</description>
      <Point>
        <coordinates>10.01462431438507,53.554834552010504</coordinates>
      </Point>
    </Placemark>

    <Placemark>
      <name>Lades Holzkohlegrill Restaurant Hamburg</name>
      <description>Lades Holzkohlegrill Restaurant Hamburg</description>
      <Point>
        <coordinates>10.015102466635769,53.55468447428314</coordinates>
      </Point>
    </Placemark>

    <Placemark>
      <name>Afiyet</name>
      <description>Afiyet</description>
      <Point>
        <coordinates>10.017413427083254,53.554437968150104</coordinates>
      </Point>
    </Placemark>

    <Placemark>
      <name>Saray döner</name>
      <description>Saray döner</description>
      <Point>
        <coordinates>9.996838933781074,53.55169724709229</coordinates>
      </Point>
    </Placemark>

    <Placemark>
      <name>Perle Döner</name>
      <description>Perle Döner</description>
      <Point>
        <coordinates>10.00021931584628,53.55221383223334</coordinates>
      </Point>
    </Placemark>

    <Placemark>
      <name>Ali's Gemüsekebab</name>
      <description>Ali's Gemüsekebab</description>
      <Point>
        <coordinates>9.995857274453135,53.5516282118943</coordinates>
      </Point>
    </Placemark>

    <Placemark>
      <name>Arin Kebap</name>
      <description>Arin Kebap</description>
      <Point>
        <coordinates>9.990375757094553,53.555038637004074</coordinates>
      </Point>
    </Placemark>

    <Placemark>
      <name>Hamza Kebab</name>
      <description>Hamza Kebab</description>
      <Point>
        <coordinates>9.990033037154198,53.557690062630805</coordinates>
      </Point>
    </Placemark>

    <Placemark>
      <name>Kardelen Restaurant</name>
      <description>Kardelen Restaurant</description>
      <Point>
        <coordinates>9.983058475818494,53.55098513315336</coordinates>
      </Point>
    </Placemark>

    <Placemark>
      <name>Mardin Döner</name>
      <description>Mardin Döner</description>
      <Point>
        <coordinates>9.988594410340758,53.548779601862364</coordinates>
      </Point>
    </Placemark>

    <Placemark>
      <name>Rödings Döner</name>
      <description>Rödings Döner</description>
      <Point>
        <coordinates>9.988079318024102,53.548052973769344</coordinates>
      </Point>
    </Placemark>

    <Placemark>
      <name>Adana Grill</name>
      <description>Adana Grill</description>
      <Point>
        <coordinates>10.041045624474366,53.57536911293468</coordinates>
      </Point>
    </Placemark>

    <Placemark>
      <name>Kebo Döner</name>
      <description>Kebo Döner</description>
      <Point>
        <coordinates>10.04336212681632,53.579596185900925</coordinates>
      </Point>
    </Placemark>

    <Placemark>
      <name>Citir Döner</name>
      <description>Citir Döner</description>
      <Point>
        <coordinates>9.970571687729647,53.58286941511424</coordinates>
      </Point>
    </Placemark>

    <Placemark>
      <name>Fuhle Grill</name>
      <description>Fuhle Grill</description>
      <Point>
        <coordinates>10.047199285941002,53.589172703196766</coordinates>
      </Point>
    </Placemark>

    <Placemark>
      <name>Beydagi Kebap</name>
      <description>Beydagi Kebap</description>
      <Point>
        <coordinates>10.055901289352605,53.59365291621381</coordinates>
      </Point>
    </Placemark>

    <Placemark>
      <name>Sato Grill Imbiss</name>
      <description>Sato Grill Imbiss</description>
      <Point>
        <coordinates>10.012021796396871,53.60705251194506</coordinates>
      </Point>
    </Placemark>

    <Placemark>
      <name>kebab kitchen</name>
      <description>kebab kitchen</description>
      <Point>
        <coordinates>10.045401996655288,53.60236986461592</coordinates>
      </Point>
    </Placemark>

    <Placemark>
      <name>Nefis Döner</name>
      <description>Nefis Döner</description>
      <Point>
        <coordinates>10.079785127766383,53.61879401649192</coordinates>
      </Point>
    </Placemark>

    <Placemark>
      <name>Edo Dönerhaus Hamburg</name>
      <description>Edo Dönerhaus Hamburg</description>
      <Point>
        <coordinates>10.077193142406653,53.61714208674057</coordinates>
      </Point>
    </Placemark>

    <Placemark>
      <name>Eatstanbul döner lounge</name>
      <description>Eatstanbul döner lounge</description>
      <Point>
        <coordinates>10.077273005644013,53.614241428790244</coordinates>
      </Point>
    </Placemark>

    <Placemark>
      <name>Kebap Lounge Winterhude</name>
      <description>Kebap Lounge Winterhude</description>
      <Point>
        <coordinates>9.998203056702677,53.59600033093441</coordinates>
      </Point>
    </Placemark>

    <Placemark>
      <name>Kaya Salat&amp;Feinkost | Bramfeld</name>
      <description>Kaya Salat&amp;Feinkost | Bramfeld</description>
      <Point>
        <coordinates>10.079099740220144,53.612225117365035</coordinates>
      </Point>
    </Placemark>

    <Placemark>
      <name>Der Ali</name>
      <description>Der Ali</description>
      <Point>
        <coordinates>10.059716592139747,53.6107018536183</coordinates>
      </Point>
    </Placemark>

    <Placemark>
      <name>Döner Grillhaus Hamburg</name>
      <description>Döner Grillhaus Hamburg</description>
      <Point>
        <coordinates>9.948965916830153,53.58470303865956</coordinates>
      </Point>
    </Placemark>

    <Placemark>
      <name>BERLIN DÖNER KIOSK</name>
      <description>BERLIN DÖNER KIOSK</description>
      <Point>
        <coordinates>10.057850850207227,53.60687027344664</coordinates>
      </Point>
    </Placemark>

    <Placemark>
      <name>Sultans Kitchen</name>
      <description>Sultans Kitchen</description>
      <Point>
        <coordinates>10.062795292182201,53.6021622108851</coordinates>
      </Point>
    </Placemark>

    <Placemark>
      <name>Langenfelde Grill Döner Pizza Burger</name>
      <description>Langenfelde Grill Döner Pizza Burger</description>
      <Point>
        <coordinates>9.930758476100612,53.58052352589027</coordinates>
      </Point>
    </Placemark>

    <Placemark>
      <name>Dönerqueen</name>
      <description>Dönerqueen</description>
      <Point>
        <coordinates>10.028982669720358,53.58604833244006</coordinates>
      </Point>
    </Placemark>

    <Placemark>
      <name>Ess-Bahn Döner</name>
      <description>Ess-Bahn Döner</description>
      <Point>
        <coordinates>9.892765622565644,53.605090250373365</coordinates>
      </Point>
    </Placemark>

    <Placemark>
      <name>Firat Kebap</name>
      <description>Firat Kebap</description>
      <Point>
        <coordinates>10.034321841099983,53.58031839956762</coordinates>
      </Point>
    </Placemark>

    <Placemark>
      <name>Sert Grill Imbiss Schnellimbiss</name>
      <description>Sert Grill Imbiss Schnellimbiss</description>
      <Point>
        <coordinates>10.025095992996722,53.57794131101349</coordinates>
      </Point>
    </Placemark>

    <Placemark>
      <name>King's Döner</name>
      <description>King's Döner</description>
      <Point>
        <coordinates>9.901990723999639,53.609915464648175</coordinates>
      </Point>
    </Placemark>

    <Placemark>
      <name>Grill House</name>
      <description>Grill House</description>
      <Point>
        <coordinates>10.033469878148715,53.5748775549978</coordinates>
      </Point>
    </Placemark>

    <Placemark>
      <name>Döner Pavillon</name>
      <description>Döner Pavillon</description>
      <Point>
        <coordinates>9.910614944845664,53.63386495232754</coordinates>
      </Point>
    </Placemark>

    <Placemark>
      <name>LIMON</name>
      <description>LIMON</description>
      <Point>
        <coordinates>10.014310467550033,53.58166493657637</coordinates>
      </Point>
    </Placemark>

    <Placemark>
      <name>Cigköftem</name>
      <description>Cigköftem</description>
      <Point>
        <coordinates>9.860313803453103,53.570495940802324</coordinates>
      </Point>
    </Placemark>

    <Placemark>
      <name>My Kebap's</name>
      <description>My Kebap's</description>
      <Point>
        <coordinates>10.01448364744504,53.58189071871705</coordinates>
      </Point>
    </Placemark>

    <Placemark>
      <name>Dubara</name>
      <description>Dubara</description>
      <Point>
        <coordinates>10.024374010508255,53.58508345096538</coordinates>
      </Point>
    </Placemark>

    <Placemark>
      <name>Elbe Kebap House</name>
      <description>Elbe Kebap House</description>
      <Point>
        <coordinates>9.863185897699376,53.5720705185879</coordinates>
      </Point>
    </Placemark>

    <Placemark>
      <name>Stadtpark Grill Haus</name>
      <description>Stadtpark Grill Haus</description>
      <Point>
        <coordinates>10.01706293283658,53.59076687106016</coordinates>
      </Point>
    </Placemark>

    <Placemark>
      <name>Leckerbissen</name>
      <description>Leckerbissen</description>
      <Point>
        <coordinates>9.913510232375069,53.596154210306835</coordinates>
      </Point>
    </Placemark>

    <Placemark>
      <name>King Döner</name>
      <description>King Döner</description>
      <Point>
        <coordinates>10.037766027046548,53.56451881101416</coordinates>
      </Point>
    </Placemark>

    <Placemark>
      <name>Idol Döner Pizzeria Hamburg</name>
      <description>Idol Döner Pizzeria Hamburg</description>
      <Point>
        <coordinates>10.05381937593479,53.569780848996835</coordinates>
      </Point>
    </Placemark>

    <Placemark>
      <name>Hammer Döner</name>
      <description>Hammer Döner</description>
      <Point>
        <coordinates>10.05521483995909,53.5647176472685</coordinates>
      </Point>
    </Placemark>

    <Placemark>
      <name>Döner Kurve</name>
      <description>Döner Kurve</description>
      <Point>
        <coordinates>9.918552785535649,53.59013034011646</coordinates>
      </Point>
    </Placemark>

    <Placemark>
      <name>Safi Food</name>
      <description>Safi Food</description>
      <Point>
        <coordinates>10.060629043875382,53.570786590804055</coordinates>
      </Point>
    </Placemark>

    <Placemark>
      <name>Stellingen Döner Kebap</name>
      <description>Stellingen Döner Kebap</description>
      <Point>
        <coordinates>9.92335930390632,53.593136014818214</coordinates>
      </Point>
    </Placemark>

    <Placemark>
      <name>Sultan's Döner-Imbiss</name>
      <description>Sultan's Döner-Imbiss</description>
      <Point>
        <coordinates>10.058958601106987,53.56508362460712</coordinates>
      </Point>
    </Placemark>

    <Placemark>
      <name>Delal Döner</name>
      <description>Delal Döner</description>
      <Point>
        <coordinates>9.892869657621437,53.60326108159303</coordinates>
      </Point>
    </Placemark>

    <Placemark>
      <name>Hazar Grill Hamburg</name>
      <description>Hazar Grill Hamburg</description>
      <Point>
        <coordinates>10.047933635333056,53.55815874660775</coordinates>
      </Point>
    </Placemark>

    <Placemark>
      <name>Harput Grill &amp; Döner</name>
      <description>Harput Grill &amp; Döner</description>
      <Point>
        <coordinates>10.068185981148,53.554249390180246</coordinates>
      </Point>
    </Placemark>

    <Placemark>
      <name>DIYAR CIG KÖFTE KEBAP GRILL</name>
      <description>DIYAR CIG KÖFTE KEBAP GRILL</description>
      <Point>
        <coordinates>9.861959597115622,53.59823287357915</coordinates>
      </Point>
    </Placemark>

    <Placemark>
      <name>Bereket Döner</name>
      <description>Bereket Döner</description>
      <Point>
        <coordinates>10.085264361060242,53.554604580794866</coordinates>
      </Point>
    </Placemark>

    <Placemark>
      <name>Volkan's Grillhaus Horn</name>
      <description>Volkan's Grillhaus Horn</description>
      <Point>
        <coordinates>10.085596050991503,53.55405885636853</coordinates>
      </Point>
    </Placemark>

    <Placemark>
      <name>Salman Imbiss</name>
      <description>Salman Imbiss</description>
      <Point>
        <coordinates>9.929502799073717,53.55203933988074</coordinates>
      </Point>
    </Placemark>

    <Placemark>
      <name>Ates Grill Haus Döner &amp; mehr...</name>
      <description>Ates Grill Haus Döner &amp; mehr...</description>
      <Point>
        <coordinates>10.08701227462847,53.5542558772054</coordinates>
      </Point>
    </Placemark>

    <Placemark>
      <name>Schato Döner</name>
      <description>Schato Döner</description>
      <Point>
        <coordinates>10.095401117965885,53.54677899451959</coordinates>
      </Point>
    </Placemark>

    <Placemark>
      <name>Mis Döner &amp; Pizzeria</name>
      <description>Mis Döner &amp; Pizzeria</description>
      <Point>
        <coordinates>10.098584463408459,53.55195296791768</coordinates>
      </Point>
    </Placemark>

    <Placemark>
      <name>Yaprak Döner</name>
      <description>Yaprak Döner</description>
      <Point>
        <coordinates>10.098924403330324,53.54348759869004</coordinates>
      </Point>
    </Placemark>

    <Placemark>
      <name>Tadim</name>
      <description>Tadim</description>
      <Point>
        <coordinates>10.100168299794948,53.54221249860391</coordinates>
      </Point>
    </Placemark>

    <Placemark>
      <name>CHICKEN ZONE &amp; KEBAB ZONE</name>
      <description>CHICKEN ZONE &amp; KEBAB ZONE</description>
      <Point>
        <coordinates>10.101068674761517,53.54050396290127</coordinates>
      </Point>
    </Placemark>

    <Placemark>
      <name>Döner Company</name>
      <description>Döner Company</description>
      <Point>
        <coordinates>9.930443516654158,53.55217905795787</coordinates>
      </Point>
    </Placemark>

    <Placemark>
      <name>Center Döner</name>
      <description>Center Döner</description>
      <Point>
        <coordinates>10.10579105032035,53.54045302702116</coordinates>
      </Point>
    </Placemark>

    <Placemark>
      <name>osdorfer pizza grillhaus</name>
      <description>osdorfer pizza grillhaus</description>
      <Point>
        <coordinates>9.854770056013507,53.589040267113916</coordinates>
      </Point>
    </Placemark>

    <Placemark>
      <name>Döner Capitol</name>
      <description>Döner Capitol</description>
      <Point>
        <coordinates>10.108838768846434,53.54272206612397</coordinates>
      </Point>
    </Placemark>

    <Placemark>
      <name>Soulkebap Lurup</name>
      <description>Soulkebap Lurup</description>
      <Point>
        <coordinates>9.880694471608923,53.59260267448288</coordinates>
      </Point>
    </Placemark>

    <Placemark>
      <name>Döner&amp;Pizza 23</name>
      <description>Döner&amp;Pizza 23</description>
      <Point>
        <coordinates>10.152326877610781,53.52994104673043</coordinates>
      </Point>
    </Placemark>

    <Placemark>
      <name>Ellerbek Classic Döner</name>
      <description>Ellerbek Classic Döner</description>
      <Point>
        <coordinates>9.889786980616147,53.6420057074941</coordinates>
      </Point>
    </Placemark>

    <Placemark>
      <name>Artemis</name>
      <description>Artemis</description>
      <Point>
        <coordinates>10.150032192944249,53.52978384236354</coordinates>
      </Point>
    </Placemark>

    <Placemark>
      <name>Schnelsener Kebap House</name>
      <description>Schnelsener Kebap House</description>
      <Point>
        <coordinates>9.91650557162363,53.63674003671849</coordinates>
      </Point>
    </Placemark>

    <Placemark>
      <name>Deniz Kebap Haus</name>
      <description>Deniz Kebap Haus</description>
      <Point>
        <coordinates>10.15147280159232,53.52726617978423</coordinates>
      </Point>
    </Placemark>

    <Placemark>
      <name>Onkel Döner</name>
      <description>Onkel Döner</description>
      <Point>
        <coordinates>9.908369960408917,53.64777885258833</coordinates>
      </Point>
    </Placemark>

    <Placemark>
      <name>West Grill - Döner</name>
      <description>West Grill - Döner</description>
      <Point>
        <coordinates>10.184266623482115,53.489873649128334</coordinates>
      </Point>
    </Placemark>

    <Placemark>
      <name>City Döner &amp; Pizza</name>
      <description>City Döner &amp; Pizza</description>
      <Point>
        <coordinates>9.947828975909202,53.64085689212752</coordinates>
      </Point>
    </Placemark>

    <Placemark>
      <name>Hummels Döner</name>
      <description>Hummels Döner</description>
      <Point>
        <coordinates>10.03748571015489,53.64275068017053</coordinates>
      </Point>
    </Placemark>

    <Placemark>
      <name>Premium Bistro</name>
      <description>Premium Bistro</description>
      <Point>
        <coordinates>9.949395385843482,53.641543824237</coordinates>
      </Point>
    </Placemark>

    <Placemark>
      <name>Abi's Grill</name>
      <description>Abi's Grill</description>
      <Point>
        <coordinates>10.130460306584103,53.53924007927009</coordinates>
      </Point>
    </Placemark>

    <Placemark>
      <name>Affenfelsen Burger</name>
      <description>Affenfelsen Burger</description>
      <Point>
        <coordinates>22455 Hamburg,Paul-Sorge-Straße 142A</coordinates>
      </Point>
    </Placemark>

    <Placemark>
      <name>Ocakbasi 27 Imbiss</name>
      <description>Ocakbasi 27 Imbiss</description>
      <Point>
        <coordinates>10.120967512514028,53.53880344822854</coordinates>
      </Point>
    </Placemark>

    <Placemark>
      <name>Güney Döner</name>
      <description>Güney Döner</description>
      <Point>
        <coordinates>10.027872673845886,53.63985030703992</coordinates>
      </Point>
    </Placemark>

    <Placemark>
      <name>Sunar Kebap Haus</name>
      <description>Sunar Kebap Haus</description>
      <Point>
        <coordinates>10.113004483351876,53.560948620371185</coordinates>
      </Point>
    </Placemark>

    <Placemark>
      <name>Tat Köz Grill</name>
      <description>Tat Köz Grill</description>
      <Point>
        <coordinates>10.131035314216083,53.571291717534876</coordinates>
      </Point>
    </Placemark>

    <Placemark>
      <name>Bizim Döner Wellingsbüttel</name>
      <description>Bizim Döner Wellingsbüttel</description>
      <Point>
        <coordinates>10.082794818881043,53.64173826735566</coordinates>
      </Point>
    </Placemark>

    <Placemark>
      <name>Brothers Kebap Haus</name>
      <description>Brothers Kebap Haus</description>
      <Point>
        <coordinates>10.184434326731763,53.48835365575015</coordinates>
      </Point>
    </Placemark>

    <Placemark>
      <name>König Döner</name>
      <description>König Döner</description>
      <Point>
        <coordinates>10.092701090101698,53.65346328880648</coordinates>
      </Point>
    </Placemark>

    <Placemark>
      <name>Bereket Döner</name>
      <description>Bereket Döner</description>
      <Point>
        <coordinates>10.182413318693031,53.48717284382211</coordinates>
      </Point>
    </Placemark>

    <Placemark>
      <name>Mega Döner</name>
      <description>Mega Döner</description>
      <Point>
        <coordinates>10.162568320460533,53.65116540898638</coordinates>
      </Point>
    </Placemark>

    <Placemark>
      <name>Sis Kebap Hamburg</name>
      <description>Sis Kebap Hamburg</description>
      <Point>
        <coordinates>10.212292415421446,53.48276845532039</coordinates>
      </Point>
    </Placemark>

    <Placemark>
      <name>Med Kebap</name>
      <description>Med Kebap</description>
      <Point>
        <coordinates>10.209685175852197,53.48975934353621</coordinates>
      </Point>
    </Placemark>

    <Placemark>
      <name>City Döner</name>
      <description>City Döner</description>
      <Point>
        <coordinates>10.209562378401257,53.49019443784271</coordinates>
      </Point>
    </Placemark>

    <Placemark>
      <name>Pamukkale Grill &amp; Restaurant</name>
      <description>Pamukkale Grill &amp; Restaurant</description>
      <Point>
        <coordinates>10.208725287167686,53.490201639630214</coordinates>
      </Point>
    </Placemark>

    <Placemark>
      <name>Bizim Döner Volksdorf</name>
      <description>Bizim Döner Volksdorf</description>
      <Point>
        <coordinates>10.166859854527052,53.64974097347755</coordinates>
      </Point>
    </Placemark>

    <Placemark>
      <name>Pamukkale Grill &amp; Backshop</name>
      <description>Pamukkale Grill &amp; Backshop</description>
      <Point>
        <coordinates>10.206369828090155,53.49014374861609</coordinates>
      </Point>
    </Placemark>

    <Placemark>
      <name>Mein Döner</name>
      <description>Mein Döner</description>
      <Point>
        <coordinates>10.055302643357328,53.63335442117465</coordinates>
      </Point>
    </Placemark>

    <Placemark>
      <name>Big Food Grill</name>
      <description>Big Food Grill</description>
      <Point>
        <coordinates>10.207807566329338,53.491599121366704</coordinates>
      </Point>
    </Placemark>

    <Placemark>
      <name>LA FE Langenhorner Feinkost</name>
      <description>LA FE Langenhorner Feinkost</description>
      <Point>
        <coordinates>10.01624967978606,53.65060373109374</coordinates>
      </Point>
    </Placemark>

    <Placemark>
      <name>Urfalim Döner</name>
      <description>Urfalim Döner</description>
      <Point>
        <coordinates>10.216244895388595,53.50413662615377</coordinates>
      </Point>
    </Placemark>

    <Placemark>
      <name>Mis Kebap</name>
      <description>Mis Kebap</description>
      <Point>
        <coordinates>10.187987332630271,53.509302834137976</coordinates>
      </Point>
    </Placemark>

    <Placemark>
      <name>Boberg Döner Pizza Haus</name>
      <description>Boberg Döner Pizza Haus</description>
      <Point>
        <coordinates>10.16188230445761,53.51563752964274</coordinates>
      </Point>
    </Placemark>

    <Placemark>
      <name>Wentorf Döner</name>
      <description>Wentorf Döner</description>
      <Point>
        <coordinates>10.259312179246098,53.49171357996351</coordinates>
      </Point>
    </Placemark>

    <Placemark>
      <name>Antalya Döner</name>
      <description>Antalya Döner</description>
      <Point>
        <coordinates>10.231533403594401,53.44648699691641</coordinates>
      </Point>
    </Placemark>

    <Placemark>
      <name>Kaya Salat &amp; Feinkost</name>
      <description>Kaya Salat &amp; Feinkost</description>
      <Point>
        <coordinates>10.01382435084179,53.649278942585354</coordinates>
      </Point>
    </Placemark>

    <Placemark>
      <name>Heidberg Döner</name>
      <description>Heidberg Döner</description>
      <Point>
        <coordinates>10.026846802475447,53.67478775550626</coordinates>
      </Point>
    </Placemark>

    <Placemark>
      <name>Restaurant Reina</name>
      <description>Restaurant Reina</description>
      <Point>
        <coordinates>10.013783405468418,53.64982948984454</coordinates>
      </Point>
    </Placemark>

    <Placemark>
      <name>Köz Bingöl Restaurant</name>
      <description>Köz Bingöl Restaurant</description>
      <Point>
        <coordinates>10.000300499025656,53.678340585832366</coordinates>
      </Point>
    </Placemark>

    <Placemark>
      <name>Döner Point</name>
      <description>Döner Point</description>
      <Point>
        <coordinates>9.994954526562553,53.516359003301574</coordinates>
      </Point>
    </Placemark>

    <Placemark>
      <name>Best Urfa</name>
      <description>Best Urfa</description>
      <Point>
        <coordinates>9.995007956204105,53.51560756912131</coordinates>
      </Point>
    </Placemark>

    <Placemark>
      <name>Döner Center</name>
      <description>Döner Center</description>
      <Point>
        <coordinates>10.012237016311142,53.502394983837235</coordinates>
      </Point>
    </Placemark>

    <Placemark>
      <name>Binboga Kebap Haus</name>
      <description>Binboga Kebap Haus</description>
      <Point>
        <coordinates>9.992677394830636,53.51107962109199</coordinates>
      </Point>
    </Placemark>

    <Placemark>
      <name>Mina Imbiss (S-Bahnhof Wilhelmsburg)</name>
      <description>Mina Imbiss (S-Bahnhof Wilhelmsburg)</description>
      <Point>
        <coordinates>10.00906147130007,53.49859166432977</coordinates>
      </Point>
    </Placemark>

    <Placemark>
      <name>Pause Eminönü</name>
      <description>Pause Eminönü</description>
      <Point>
        <coordinates>9.989959401965768,53.51752778289221</coordinates>
      </Point>
    </Placemark>

    <Placemark>
      <name>Furkaan Imbiss</name>
      <description>Furkaan Imbiss</description>
      <Point>
        <coordinates>10.01715363837249,53.49331690450934</coordinates>
      </Point>
    </Placemark>

    <Placemark>
      <name>Dock8 Döner</name>
      <description>Dock8 Döner</description>
      <Point>
        <coordinates>9.991012282619812,53.4658234530312</coordinates>
      </Point>
    </Placemark>

    <Placemark>
      <name>Köz Ocakbasi</name>
      <description>Köz Ocakbasi</description>
      <Point>
        <coordinates>9.977296939523928,53.461444115890835</coordinates>
      </Point>
    </Placemark>

    <Placemark>
      <name>Döner Treff Harburg</name>
      <description>Döner Treff Harburg</description>
      <Point>
        <coordinates>9.97893645215051,53.46048330162174</coordinates>
      </Point>
    </Placemark>

    <Placemark>
      <name>Bereket Grill</name>
      <description>Bereket Grill</description>
      <Point>
        <coordinates>9.97890038495992,53.461090270209226</coordinates>
      </Point>
    </Placemark>

    <Placemark>
      <name>Döner Queen Kalender</name>
      <description>Döner Queen Kalender</description>
      <Point>
        <coordinates>9.98032585117429,53.460972073939054</coordinates>
      </Point>
    </Placemark>

    <Placemark>
      <name>Wunder Döner</name>
      <description>Wunder Döner</description>
      <Point>
        <coordinates>9.982033591273499,53.460784390339455</coordinates>
      </Point>
    </Placemark>

    <Placemark>
      <name>Dubara Harburg</name>
      <description>Dubara Harburg</description>
      <Point>
        <coordinates>9.982776849721093,53.46118843198611</coordinates>
      </Point>
    </Placemark>

    <Placemark>
      <name>Döner Royal</name>
      <description>Döner Royal</description>
      <Point>
        <coordinates>9.982202582249846,53.459718514178725</coordinates>
      </Point>
    </Placemark>

    <Placemark>
      <name>Delikato Döner</name>
      <description>Delikato Döner</description>
      <Point>
        <coordinates>9.986516278912825,53.45740436479652</coordinates>
      </Point>
    </Placemark>

    <Placemark>
      <name>ZAZA KING Döner und Pizzeria</name>
      <description>ZAZA KING Döner und Pizzeria</description>
      <Point>
        <coordinates>9.986407980656683,53.45710354989158</coordinates>
      </Point>
    </Placemark>

    <Placemark>
      <name>BOSPORUS LOUNGE</name>
      <description>BOSPORUS LOUNGE</description>
      <Point>
        <coordinates>9.988169556679425,53.45641781221073</coordinates>
      </Point>
    </Placemark>

    <Placemark>
      <name>Mis Tantuni &amp; Döner</name>
      <description>Mis Tantuni &amp; Döner</description>
      <Point>
        <coordinates>9.98728745871986,53.45556083395584</coordinates>
      </Point>
    </Placemark>

    <Placemark>
      <name>Özlem Köfte Hamburg</name>
      <description>Özlem Köfte Hamburg</description>
      <Point>
        <coordinates>9.987308911382327,53.45535001721958</coordinates>
      </Point>
    </Placemark>

    <Placemark>
      <name>Kaya Döner</name>
      <description>Kaya Döner</description>
      <Point>
        <coordinates>9.992644627227985,53.44023579643012</coordinates>
      </Point>
    </Placemark>

    <Placemark>
      <name>Star Döner</name>
      <description>Star Döner</description>
      <Point>
        <coordinates>9.964491966382653,53.441363208655076</coordinates>
      </Point>
    </Placemark>

    <Placemark>
      <name>Elbdöner</name>
      <description>Elbdöner</description>
      <Point>
        <coordinates>9.96639464918209,53.4581532929172</coordinates>
      </Point>
    </Placemark>

    <Placemark>
      <name>Uni-Grillhouse</name>
      <description>Uni-Grillhouse</description>
      <Point>
        <coordinates>9.975675060933405,53.46017896468859</coordinates>
      </Point>
    </Placemark>

    <Placemark>
      <name>Döner Connection</name>
      <description>Döner Connection</description>
      <Point>
        <coordinates>9.966235295412785,53.46512191222089</coordinates>
      </Point>
    </Placemark>

    <Placemark>
      <name>Döner &amp; Getränkewelt</name>
      <description>Döner &amp; Getränkewelt</description>
      <Point>
        <coordinates>9.930595245296164,53.55231877557363</coordinates>
      </Point>
    </Placemark>

    <Placemark>
      <name>URFA TADI</name>
      <description>URFA TADI</description>
      <Point>
        <coordinates>9.930189441044982,53.552745920441495</coordinates>
      </Point>
    </Placemark>

    <Placemark>
      <name>Hatay Grill Imbiss</name>
      <description>Hatay Grill Imbiss</description>
      <Point>
        <coordinates>9.964539209701693,53.465616180401966</coordinates>
      </Point>
    </Placemark>

    <Placemark>
      <name>Neugrabener Grillhouse</name>
      <description>Neugrabener Grillhouse</description>
      <Point>
        <coordinates>9.85534950491293,53.47011187390324</coordinates>
      </Point>
    </Placemark>

    <Placemark>
      <name>Bey Kebab</name>
      <description>Bey Kebab</description>
      <Point>
        <coordinates>9.929497431176758,53.55290207859039</coordinates>
      </Point>
    </Placemark>

    <Placemark>
      <name>Salli‘s Kebap &amp; Grill</name>
      <description>Salli‘s Kebap &amp; Grill</description>
      <Point>
        <coordinates>9.934701247175724,53.552129262481614</coordinates>
      </Point>
    </Placemark>

    <Placemark>
      <name>Tosun</name>
      <description>Tosun</description>
      <Point>
        <coordinates>9.93175585098329,53.552768228784174</coordinates>
      </Point>
    </Placemark>

    <Placemark>
      <name>Big Döner House</name>
      <description>Big Döner House</description>
      <Point>
        <coordinates>9.855306823581317,53.47154233793211</coordinates>
      </Point>
    </Placemark>

    <Placemark>
      <name>ÖZ URFA</name>
      <description>ÖZ URFA</description>
      <Point>
        <coordinates>9.855402268354258,53.4730298403655</coordinates>
      </Point>
    </Placemark>

    <Placemark>
      <name>Dilay Döner</name>
      <description>Dilay Döner</description>
      <Point>
        <coordinates>9.93259270012626,53.55237942456384</coordinates>
      </Point>
    </Placemark>

    <Placemark>
      <name>Köz Urfa</name>
      <description>Köz Urfa</description>
      <Point>
        <coordinates>9.936342759072739,53.55269016255271</coordinates>
      </Point>
    </Placemark>

    <Placemark>
      <name>Köz Ach Der Deniz Hamburg</name>
      <description>Köz Ach Der Deniz Hamburg</description>
      <Point>
        <coordinates>9.876747471493601,53.474974939246</coordinates>
      </Point>
    </Placemark>

    <Placemark>
      <name>Nasip Grill</name>
      <description>Nasip Grill</description>
      <Point>
        <coordinates>9.928346569822839,53.55499382164442</coordinates>
      </Point>
    </Placemark>

    <Placemark>
      <name>Dream Döner</name>
      <description>Dream Döner</description>
      <Point>
        <coordinates>9.875227325894263,53.47959124742886</coordinates>
      </Point>
    </Placemark>

    <Placemark>
      <name>Diyar´s Döner Kebap &amp; Backshop</name>
      <description>Diyar´s Döner Kebap &amp; Backshop</description>
      <Point>
        <coordinates>9.875592246382075,53.480383018023154</coordinates>
      </Point>
    </Placemark>

    <Placemark>
      <name>KÖZ GRİLL HOUSE</name>
      <description>KÖZ GRİLL HOUSE</description>
      <Point>
        <coordinates>9.89192330089594,53.47291798010803</coordinates>
      </Point>
    </Placemark>

    <Placemark>
      <name>Toros TANTUNI</name>
      <description>Toros TANTUNI</description>
      <Point>
        <coordinates>9.92844242938015,53.5550823203892</coordinates>
      </Point>
    </Placemark>

    <Placemark>
      <name>Tarsusi - anatolian street food</name>
      <description>Tarsusi - anatolian street food</description>
      <Point>
        <coordinates>9.928309279103976,53.55568936837775</coordinates>
      </Point>
    </Placemark>

    <Placemark>
      <name>Salli Salman</name>
      <description>Salli Salman</description>
      <Point>
        <coordinates>10.018019378388917,53.523401877741996</coordinates>
      </Point>
    </Placemark>

    <Placemark>
      <name>Schippels Döner</name>
      <description>Schippels Döner</description>
      <Point>
        <coordinates>9.953224469414891,53.634365795375004</coordinates>
      </Point>
    </Placemark>

    <Placemark>
      <name>Dönerei</name>
      <description>Dönerei</description>
      <Point>
        <coordinates>10.039725399863206,53.53378536698037</coordinates>
      </Point>
    </Placemark>

    <Placemark>
      <name>Der Kebap</name>
      <description>Der Kebap</description>
      <Point>
        <coordinates>10.03348464984548,53.53696407431298</coordinates>
      </Point>
    </Placemark>

    <Placemark>
      <name>Der Simo</name>
      <description>Der Simo</description>
      <Point>
        <coordinates>10.032423297559593,53.53660313445247</coordinates>
      </Point>
    </Placemark>

    <Placemark>
      <name>myKöz</name>
      <description>myKöz</description>
      <Point>
        <coordinates>10.034890953355823,53.53674340741204</coordinates>
      </Point>
    </Placemark>

    <Placemark>
      <name>Döner Kitchen</name>
      <description>Döner Kitchen</description>
      <Point>
        <coordinates>10.044022568802404,53.53922921979008</coordinates>
      </Point>
    </Placemark>

    <Placemark>
      <name>WaRé Imbiss</name>
      <description>WaRé Imbiss</description>
      <Point>
        <coordinates>10.047828191562285,53.53899534944416</coordinates>
      </Point>
    </Placemark>

    <Placemark>
      <name>Sultan's Kebab</name>
      <description>Sultan's Kebab</description>
      <Point>
        <coordinates>10.027982678673395,53.54634379981058</coordinates>
      </Point>
    </Placemark>

    <Placemark>
      <name>Aras Kebab Döner</name>
      <description>Aras Kebab Döner</description>
      <Point>
        <coordinates>10.015618368402102,53.54887196823239</coordinates>
      </Point>
    </Placemark>

    <Placemark>
      <name>Reeperbahn 5, 20359 Hamburg</name>
      <description>Reeperbahn 5, 20359 Hamburg</description>
      <Point>
        <coordinates>9.967967614561353,53.550345530393734</coordinates>
      </Point>
    </Placemark>

    <Placemark>
      <name>Kebab Dream</name>
      <description>Kebab Dream</description>
      <Point>
        <coordinates>10.155318190293828,53.60566840265727</coordinates>
      </Point>
    </Placemark>

    <Placemark>
      <name>Köz-Antep</name>
      <description>Köz-Antep</description>
      <Point>
        <coordinates>9.964573899054304,53.55235439560798</coordinates>
      </Point>
    </Placemark>

    <Placemark>
      <name>Döner Factory</name>
      <description>Döner Factory</description>
      <Point>
        <coordinates>9.962646953305107,53.54933747106604</coordinates>
      </Point>
    </Placemark>

    <Placemark>
      <name>Döner Welt Getränke Welt</name>
      <description>Döner Welt Getränke Welt</description>
      <Point>
        <coordinates>9.961026625257563,53.54935268263824</coordinates>
      </Point>
    </Placemark>

    <Placemark>
      <name>Antep Gülbaba Köz</name>
      <description>Antep Gülbaba Köz</description>
      <Point>
        <coordinates>9.958895964316365,53.54948915897052</coordinates>
      </Point>
    </Placemark>

    <Placemark>
      <name>Reeperbahn Döner</name>
      <description>Reeperbahn Döner</description>
      <Point>
        <coordinates>9.959327980566309,53.549601958721915</coordinates>
      </Point>
    </Placemark>

    <Placemark>
      <name>Mardin Döner</name>
      <description>Mardin Döner</description>
      <Point>
        <coordinates>9.961203503261586,53.5498217388512</coordinates>
      </Point>
    </Placemark>

    <Placemark>
      <name>Kiez Döner</name>
      <description>Kiez Döner</description>
      <Point>
        <coordinates>9.958434944167358,53.55005679823192</coordinates>
      </Point>
    </Placemark>

    <Placemark>
      <name>Döner Freiheit</name>
      <description>Döner Freiheit</description>
      <Point>
        <coordinates>9.958281867185345,53.55066320339293</coordinates>
      </Point>
    </Placemark>

    <Placemark>
      <name>Deniz Imbiss - Döner &amp; Pizza</name>
      <description>Deniz Imbiss - Döner &amp; Pizza</description>
      <Point>
        <coordinates>9.960055331804565,53.550875405168966</coordinates>
      </Point>
    </Placemark>

    <Placemark>
      <name>Berg Grill Imbiss</name>
      <description>Berg Grill Imbiss</description>
      <Point>
        <coordinates>9.962479463419877,53.55067064732605</coordinates>
      </Point>
    </Placemark>

    <Placemark>
      <name>Babanin Yeri</name>
      <description>Babanin Yeri</description>
      <Point>
        <coordinates>9.959056789338966,53.55312549201891</coordinates>
      </Point>
    </Placemark>

    <Placemark>
      <name>Pauli Döner</name>
      <description>Pauli Döner</description>
      <Point>
        <coordinates>9.963314941368933,53.55604986058419</coordinates>
      </Point>
    </Placemark>

    <Placemark>
      <name>Bunker Döner</name>
      <description>Bunker Döner</description>
      <Point>
        <coordinates>9.969794639009804,53.557563381304355</coordinates>
      </Point>
    </Placemark>

    <Placemark>
      <name>Big Food Imbiss</name>
      <description>Big Food Imbiss</description>
      <Point>
        <coordinates>9.964564306765695,53.55987743356602</coordinates>
      </Point>
    </Placemark>

    <Placemark>
      <name>Kebaba Dein Dönermann</name>
      <description>Kebaba Dein Dönermann</description>
      <Point>
        <coordinates>9.9621325883184,53.56230009484166</coordinates>
      </Point>
    </Placemark>

    <Placemark>
      <name>Pamukkale Köz Schanze</name>
      <description>Pamukkale Köz Schanze</description>
      <Point>
        <coordinates>9.964032690008528,53.56253539516676</coordinates>
      </Point>
    </Placemark>

    <Placemark>
      <name>Schanzen Döner</name>
      <description>Schanzen Döner</description>
      <Point>
        <coordinates>9.965641131148873,53.56407138835919</coordinates>
      </Point>
    </Placemark>

    <Placemark>
      <name>Soulkebab Schanze</name>
      <description>Soulkebab Schanze</description>
      <Point>
        <coordinates>9.965851683333515,53.564654877567385</coordinates>
      </Point>
    </Placemark>

    <Placemark>
      <name>Sallis</name>
      <description>Sallis</description>
      <Point>
        <coordinates>9.970045162812703,53.56823537870386</coordinates>
      </Point>
    </Placemark>

    <Placemark>
      <name>Ali's Döner To-Go</name>
      <description>Ali's Döner To-Go</description>
      <Point>
        <coordinates>9.98071865635198,53.56755182206362</coordinates>
      </Point>
    </Placemark>

    <Placemark>
      <name>UNI DÖNER</name>
      <description>UNI DÖNER</description>
      <Point>
        <coordinates>9.981484865777382,53.56721840267523</coordinates>
      </Point>
    </Placemark>

    <Placemark>
      <name>Campus Döner</name>
      <description>Campus Döner</description>
      <Point>
        <coordinates>9.981962796703902,53.56704718246348</coordinates>
      </Point>
    </Placemark>

    <Placemark>
      <name>Tuana Döner und mehr</name>
      <description>Tuana Döner und mehr</description>
      <Point>
        <coordinates>9.98856742023467,53.56785340872666</coordinates>
      </Point>
    </Placemark>

    <Placemark>
      <name>Doy Doy Kebap House</name>
      <description>Doy Doy Kebap House</description>
      <Point>
        <coordinates>9.96559996005502,53.580359361522405</coordinates>
      </Point>
    </Placemark>

    <Placemark>
      <name>Grill Center</name>
      <description>Grill Center</description>
      <Point>
        <coordinates>9.945450467043736,53.57958666139016</coordinates>
      </Point>
    </Placemark>

    <Placemark>
      <name>S&amp;S Grill</name>
      <description>S&amp;S Grill</description>
      <Point>
        <coordinates>9.967801920489858,53.583594216345595</coordinates>
      </Point>
    </Placemark>

    <Placemark>
      <name>Sel Kebap's</name>
      <description>Sel Kebap's</description>
      <Point>
        <coordinates>9.970220114753188,53.58445096190638</coordinates>
      </Point>
    </Placemark>

    <Placemark>
      <name>Okay Grill</name>
      <description>Okay Grill</description>
      <Point>
        <coordinates>9.942210120879157,53.57786353342522</coordinates>
      </Point>
    </Placemark>

    <Placemark>
      <name>Kalkan Döner Kebap</name>
      <description>Kalkan Döner Kebap</description>
      <Point>
        <coordinates>9.949527186124923,53.57652580600658</coordinates>
      </Point>
    </Placemark>

    <Placemark>
      <name>Cheatday Kebab</name>
      <description>Cheatday Kebab</description>
      <Point>
        <coordinates>9.974081363991495,53.58060957326193</coordinates>
      </Point>
    </Placemark>

    <Placemark>
      <name>My Kebap´s</name>
      <description>My Kebap´s</description>
      <Point>
        <coordinates>9.975037560471144,53.580191723588676</coordinates>
      </Point>
    </Placemark>

    <Placemark>
      <name>Golden Kebab Eimsbüttel</name>
      <description>Golden Kebab Eimsbüttel</description>
      <Point>
        <coordinates>9.951152659325336,53.57874864492834</coordinates>
      </Point>
    </Placemark>

    <Placemark>
      <name>TimeOut - Istanbul Streetfood</name>
      <description>TimeOut - Istanbul Streetfood</description>
      <Point>
        <coordinates>9.969418641976524,53.584064329959844</coordinates>
      </Point>
    </Placemark>

    <Placemark>
      <name>Blankeneser Imbiss</name>
      <description>Blankeneser Imbiss</description>
      <Point>
        <coordinates>9.821235193377985,53.564537456538034</coordinates>
      </Point>
    </Placemark>

    <Placemark>
      <name>K&amp;R Grillhouse</name>
      <description>K&amp;R Grillhouse</description>
      <Point>
        <coordinates>9.89483309527356,53.560181875872125</coordinates>
      </Point>
    </Placemark>

    <Placemark>
      <name>Rissener Döner Pavillon</name>
      <description>Rissener Döner Pavillon</description>
      <Point>
        <coordinates>9.769295976342578,53.58370069886315</coordinates>
      </Point>
    </Placemark>

    <Placemark>
      <name>Döner 58</name>
      <description>Döner 58</description>
      <Point>
        <coordinates>9.908444631739904,53.61709694215968</coordinates>
      </Point>
    </Placemark>

    <Placemark>
      <name>KeBaP Lounge</name>
      <description>KeBaP Lounge</description>
      <Point>
        <coordinates>9.946472959379395,53.59391995556845</coordinates>
      </Point>
    </Placemark>

    <Placemark>
      <name>Kebab Bey</name>
      <description>Kebab Bey</description>
      <Point>
        <coordinates>9.981756950930041,53.58467923461957</coordinates>
      </Point>
    </Placemark>

    <Placemark>
      <name>Insel Döner</name>
      <description>Insel Döner</description>
      <Point>
        <coordinates>9.882172183567986,53.53286802240559</coordinates>
      </Point>
    </Placemark>

    <Placemark>
      <name>ÖZ Harput Grill Haus</name>
      <description>ÖZ Harput Grill Haus</description>
      <Point>
        <coordinates>9.879554854540341,53.53368472622319</coordinates>
      </Point>
    </Placemark>

    <Placemark>
      <name>Döner Meile</name>
      <description>Döner Meile</description>
      <Point>
        <coordinates>10.032700878149774,53.57454395093419</coordinates>
      </Point>
    </Placemark>

    <Placemark>
      <name>Dr.Kebap</name>
      <description>Dr.Kebap</description>
      <Point>
        <coordinates>10.030819372814376,53.573895431412474</coordinates>
      </Point>
    </Placemark>

    <Placemark>
      <name>Nøne Meat Hamburg</name>
      <description>Nøne Meat Hamburg</description>
      <Point>
        <coordinates>9.97202888005194,53.58175577845635</coordinates>
      </Point>
    </Placemark>

    <Placemark>
      <name>Kaya Salate &amp; Feinkost</name>
      <description>Kaya Salate &amp; Feinkost</description>
      <Point>
        <coordinates>9.953391423342595,53.622814455815885</coordinates>
      </Point>
    </Placemark>

    <Placemark>
      <name>Enes Döner</name>
      <description>Enes Döner</description>
      <Point>
        <coordinates>9.969820015693053,53.604242173187814</coordinates>
      </Point>
    </Placemark>

    <Placemark>
      <name>La Delizia Restaurant</name>
      <description>La Delizia Restaurant</description>
      <Point>
        <coordinates>9.972078347464405,53.58247595364475</coordinates>
      </Point>
    </Placemark>

    <Placemark>
      <name>Borstel Kebab</name>
      <description>Borstel Kebab</description>
      <Point>
        <coordinates>9.981271615432313,53.606981607261986</coordinates>
      </Point>
    </Placemark>

    <Placemark>
      <name>My Kebap‘s</name>
      <description>My Kebap‘s</description>
      <Point>
        <coordinates>9.990799343009032,53.59338437768462</coordinates>
      </Point>
    </Placemark>

    <Placemark>
      <name>SoulKebab</name>
      <description>SoulKebab</description>
      <Point>
        <coordinates>9.996682026570133,53.60028720097982</coordinates>
      </Point>
    </Placemark>

    <Placemark>
      <name>Dürüm</name>
      <description>Dürüm</description>
      <Point>
        <coordinates>9.852900731784937,53.58796454408172</coordinates>
      </Point>
    </Placemark>

    <Placemark>
      <name>Shawarma Marina</name>
      <description>Shawarma Marina</description>
      <Point>
        <coordinates>10.037264318893662,53.56574437718882</coordinates>
      </Point>
    </Placemark>

    <Placemark>
      <name>Larisa-bauchstation Restaurant</name>
      <description>Larisa-bauchstation Restaurant</description>
      <Point>
        <coordinates>9.878081836039014,53.53347469638544</coordinates>
      </Point>
    </Placemark>

    <Placemark>
      <name>Mina Restaurant (Luna Center)</name>
      <description>Mina Restaurant (Luna Center)</description>
      <Point>
        <coordinates>10.009650975400342,53.49794700146621</coordinates>
      </Point>
    </Placemark>

    <Placemark>
      <name>Hünkar</name>
      <description>Hünkar</description>
      <Point>
        <coordinates>9.983112680189484,53.462712743245156</coordinates>
      </Point>
    </Placemark>

    <Placemark>
      <name>BEYOĞLU KEBAP HOUSE</name>
      <description>BEYOĞLU KEBAP HOUSE</description>
      <Point>
        <coordinates>9.9810042731921,53.55005507241154</coordinates>
      </Point>
    </Placemark>

    <Placemark>
      <name>Mr. Kebab</name>
      <description>Mr. Kebab</description>
      <Point>
        <coordinates>9.963014042682117,53.55657709655709</coordinates>
      </Point>
    </Placemark>

    <Placemark>
      <name>Soul Kebab</name>
      <description>Soul Kebab</description>
      <Point>
        <coordinates>9.967284385378676,53.556589633960435</coordinates>
      </Point>
    </Placemark>

    <Placemark>
      <name>SERHAT-Döner</name>
      <description>SERHAT-Döner</description>
      <Point>
        <coordinates>10.041477911871427,53.55284364638288</coordinates>
      </Point>
    </Placemark>

    <Placemark>
      <name>Holsten Döner</name>
      <description>Holsten Döner</description>
      <Point>
        <coordinates>9.9489628137867,53.56168116870189</coordinates>
      </Point>
    </Placemark>

    <Placemark>
      <name>Max Döner</name>
      <description>Max Döner</description>
      <Point>
        <coordinates>9.949558614510629,53.55840965135139</coordinates>
      </Point>
    </Placemark>

    <Placemark>
      <name>Ali Baba Döner &amp; Grill</name>
      <description>Ali Baba Döner &amp; Grill</description>
      <Point>
        <coordinates>9.942998158250655,53.5520716973317</coordinates>
      </Point>
    </Placemark>

    <Placemark>
      <name>Döner Time</name>
      <description>Döner Time</description>
      <Point>
        <coordinates>9.941099124400829,53.55192517130549</coordinates>
      </Point>
    </Placemark>

    <Placemark>
      <name>Köz Sultan Kebap Döner</name>
      <description>Köz Sultan Kebap Döner</description>
      <Point>
        <coordinates>9.940476867845716,53.55215465069054</coordinates>
      </Point>
    </Placemark>

    <Placemark>
      <name>Kebab House KURTULAN</name>
      <description>Kebab House KURTULAN</description>
      <Point>
        <coordinates>9.927060413007275,53.56449982785179</coordinates>
      </Point>
    </Placemark>

    <Placemark>
      <name>The Salli's Kiosk Kebab &amp; Veggie</name>
      <description>The Salli's Kiosk Kebab &amp; Veggie</description>
      <Point>
        <coordinates>10.003760928230784,53.55290846110499</coordinates>
      </Point>
    </Placemark>

    <Placemark>
      <name>Burg Döner</name>
      <description>Burg Döner</description>
      <Point>
        <coordinates>10.042266342574365,53.55598692727318</coordinates>
      </Point>
    </Placemark>

    <Placemark>
      <name>Star Döner</name>
      <description>Star Döner</description>
      <Point>
        <coordinates>9.912781399144292,53.56539465180453</coordinates>
      </Point>
    </Placemark>

    <Placemark>
      <name>Dave's Döner &amp; Bowls</name>
      <description>Dave's Döner &amp; Bowls</description>
      <Point>
        <coordinates>9.991172901446062,53.560757077995355</coordinates>
      </Point>
    </Placemark>

    <Placemark>
      <name>Havin Grill</name>
      <description>Havin Grill</description>
      <Point>
        <coordinates>10.005939529720946,53.55276905552301</coordinates>
      </Point>
    </Placemark>

    <Placemark>
      <name>Soulkebab</name>
      <description>Soulkebab</description>
      <Point>
        <coordinates>10.046108243992707,53.58794691383729</coordinates>
      </Point>
    </Placemark>

    <Placemark>
      <name>Sultan's</name>
      <description>Sultan's</description>
      <Point>
        <coordinates>10.046461984729943,53.58751516327163</coordinates>
      </Point>
    </Placemark>

    <Placemark>
      <name>Volkan's Grillhaus Horn</name>
      <description>Volkan's Grillhaus Horn</description>
      <Point>
        <coordinates>10.08555686871429,53.554157655523724</coordinates>
      </Point>
    </Placemark>

    <Placemark>
      <name>BAN BAB KEBABKLUB</name>
      <description>BAN BAB KEBABKLUB</description>
      <Point>
        <coordinates>9.972071937616024,53.55857543260361</coordinates>
      </Point>
    </Placemark>

    <Placemark>
      <name>Dönertreff</name>
      <description>Dönertreff</description>
      <Point>
        <coordinates>10.067623575263235,53.5833035537585</coordinates>
      </Point>
    </Placemark>

    <Placemark>
      <name>Ardacan Grillhaus</name>
      <description>Ardacan Grillhaus</description>
      <Point>
        <coordinates>10.044484779621046,53.5928207338838</coordinates>
      </Point>
    </Placemark>

    <Placemark>
      <name>Malik Pizza</name>
      <description>Malik Pizza</description>
      <Point>
        <coordinates>9.95346224728773,53.57316290475919</coordinates>
      </Point>
    </Placemark>

    <Placemark>
      <name>Malik Pizza</name>
      <description>Malik Pizza</description>
      <Point>
        <coordinates>10.070076929048442,53.6120315768937</coordinates>
      </Point>
    </Placemark>

    <Placemark>
      <name>Lezzet</name>
      <description>Lezzet</description>
      <Point>
        <coordinates>10.043827110845651,53.594295799911166</coordinates>
      </Point>
    </Placemark>

    <Placemark>
      <name>Ach der Deniz</name>
      <description>Ach der Deniz</description>
      <Point>
        <coordinates>10.048927417684016,53.56804123682585</coordinates>
      </Point>
    </Placemark>

    <Placemark>
      <name>As Urfa Harburg</name>
      <description>As Urfa Harburg</description>
      <Point>
        <coordinates>9.986205885012184,53.456667501831504</coordinates>
      </Point>
    </Placemark>

    <Placemark>
      <name>KÖZ KAPADOKYA RESTAURANT Hamburg</name>
      <description>KÖZ KAPADOKYA RESTAURANT Hamburg</description>
      <Point>
        <coordinates>9.986338846819914,53.50684769331486</coordinates>
      </Point>
    </Placemark>

    <Placemark>
      <name>Kebap Salonu</name>
      <description>Kebap Salonu</description>
      <Point>
        <coordinates>10.010836717546775,53.55291628310484</coordinates>
      </Point>
    </Placemark>

    <Placemark>
      <name>Döner Platz</name>
      <description>Döner Platz</description>
      <Point>
        <coordinates>10.109210911879556,53.70826719178597</coordinates>
      </Point>
    </Placemark>
    </Document>
</kml>